id,name,latitude,longitude
847,South Long Beach,33.792221,-118.175278
1575,Los Angeles - N. Mai,34.0669,-118.2417
1948,Compton,33.9014,-118.205
2138,Reseda,34.1992,-118.5331
5791,EBAM-4,33.85966,-118.2007
7936,Los Angeles - N. Mai,34.066429,-118.22675500000001
8236,North Holywood,34.181977,-118.363036
8679,Long Beach Signal Hi,33.793713,-118.171019
290486,8544 - Roybal Lc,34.06177624,-118.2548703
290493,5857 - 107Th St El,33.94018143,-118.2724937
290494,2945 - Century Pk El,33.93643353,-118.3198044
290497,3548 - Elizabeth Learning Ctr,33.96405384,-118.1833671
290509,6192 - Ranchito El,34.21478034,-118.4338051
290514,6288 - Rio Vista Elementary,34.1474325,-118.3688272
290516,6685 - Sheridan St El,34.0494627,-118.2079853
290527,Gulf ES (4315),33.78548487,-118.272723
290539,5014 - Loyola Village Elementary,33.95755496,-118.421108
290548,4521 - Hesby Oaks,34.16132205,-118.4725921
290556,3959 - 42Nd St El,34.0063417,-118.3220053
290562,7781 - Wilmington Pk El,33.78616669,-118.2457519
290579,4764 - Lanai Road Elementary,34.14907151,-118.493138
290586,5986 - Palms El,34.0260643,-118.40747
290592,6137 - Point Fermin Elementary,33.7142556,-118.2902397
290598,4315 - Gulf El,33.78548487,-118.272723
290612,8664 - Gardena Sh,33.86839575,-118.2967569
290613,Sheridan St ES (6685),34.0494627,-118.2079853
290617,2383 - Esperanza El,34.05495895,-118.2716824
290619,4790 - Lassen Es,34.24714121,-118.4598343
290627,4096 - Gates El,34.07282985,-118.2058089
290631,2603 - Buchanan El,34.11908877,-118.2064522
290647,5342 - Monlux El,34.18168176,-118.4099643
290669,6425 - Rowan El,34.0286054,-118.1868189
290676,7562 - Vintage Math/Sci Mag,34.25188797,-118.4772968
351827,AXJXGCPF,34.19444,-118.157795
352169,Central Ave.,33.93129,-118.25421
352228,Imperial Hwy.,33.92907,-118.2309
352243,Weigand Ave.,33.942,-118.22972
923364,Rio Vista ES (6288),34.14764,-118.36771
923365,Lanai Rd ES (4764),34.1484,-118.49257
929705,Rowan ES (6425),34.02861,-118.18682
947150,Gulf ES (4315),33.78548,-118.27272
947151,South Shores Per Arts Mag ES (6870),33.72305,-118.32231
947152,Arminta St ES (2205),34.215,-118.38277
947153,Calvert ES (2712),34.18177,-118.56517
947154,54th St ES (3781),33.99189,-118.34346
947155,Stagg ES (6890),34.21295,-118.50658
947156,Taft HS (8880),34.16853,-118.57312
947157,Sharp ES (6665),34.25229,-118.43252
947158,Compton ES (3205),33.94224,-118.2471
947159,Curtiss MS (8103),33.85016,-118.25123
947160,5014 - Loyola Village ES,34.19444,-118.157795
947161,Weigand ES (7634),33.94164,-118.23015
947162,Vinedale ES (7548),34.23318,-118.35243
947163,Trinity ES (7219),34.0124,-118.26886
947164,Berendo MS (8057),34.04997,-118.29504
947165,Atwater ES (2233),34.11509,-118.25456
947166,Valley View ES (7397),34.12561,-118.34553
947167,AGVX0MF3,33.99022953,-118.2728756
947168,Gates ES (4096),34.07283,-118.20581
947169,Napa ES (5446),34.22551,-118.54735
947170,7th St ES (6616),33.73863,-118.31081
947171,Anatola ES (2110),34.20324,-118.51409
947172,Windsor Magnet ES (7822),33.99629,-118.35653
947173,Rinaldi Adult Center (9365),34.27871,-118.51388
947174,Encino ES (3616),34.16235,-118.50241
947175,Dyer ES (3493),34.2995,-118.44729
947176,Vanalden ES (7411),34.18331,-118.54711
947177,Oxnard ES (5918),34.1785,-118.36865
947178,Andasol ES (2117),34.2547,-118.51438
947180,Roybal LC (8544),34.06178,-118.25487
947182,Kenter Canyon ES (4699),34.07063,-118.48905
947183,Budlong ES (2616),33.98678,-118.29511
947184,Lassen Es (4790),34.24714,-118.45983
947185,Fernangeles ES (3753),34.23173,-118.39503
947186,Gardena HS (8664),33.8684,-118.29676
947187,Dixie Canyon ES (3438),34.14798,-118.42394
947188,Van Deene Ave ES (7419),33.83794,-118.28869
947189,La Salle ES (4786),33.95766,-118.30628
947190,Cabrillo ES (2685),33.73742,-118.2936
947191,Chapman ES (2986),33.89551,-118.31287
947192,Roscomare Rd ES (6363),34.11992,-118.46455
947193,7370 - Utah El,34.04922005,-118.224627
947194,Lowman Sp Ed Ctr (1948),34.20698,-118.41306
947195,Mosk ES (7402),34.2036,-118.56846
947196,5986 - Palms ES,34.19444,-118.157795
947197,Garfield HS/Monterey CHS (8677),34.02844,-118.15864
947198,Parthenia ES (6027),34.22755,-118.49912
947199,Mountain View ES (5404),34.24829,-118.27239
947200,	 North Valley Occupational Ctr (9329),34.27728,-118.45681
947201,San Pedro ES (6507),34.02899,-118.25773
947202,West Hollywood ES (7649),34.08906,-118.3867
947203,Chatsworth ES (3027),34.25816,-118.60694
947204,Clear Creek Ed Ctr (1481),34.27765,-118.16891
947205,Reseda Colocation,34.199167,-118.532778
947206,Logan ES (4904),34.0796,-118.25754
947207,Coeur D Alene ES (6342),33.98975,-118.45305
947208,Delevan Drive ES (3397),34.12853,-118.22679
947209,AWL24JH1,33.80147757,-118.2627952
947210,Newcastle ES (5479),34.18955,-118.52419
947211,Normandie ES (5630),34.00289,-118.29905
947212,Webster MS (8481),34.02911,-118.43553
947213,Sherman Oaks ES (6699),34.14998,-118.45502
947214,Sunny Brae ES (6986),34.21278,-118.58197
947215,Dominguez ES (3466),33.83612,-118.21385
947216,Avalon Gardens ES (2247),33.90501,-118.2685
947217,Gridley ES (4295),34.30275,-118.42902
947218,Grand View ES (4247),34.00182,-118.42993
947219,Russell ES (6438),33.96098,-118.25199
947220,Verdugo Hills HS (8914),34.26141,-118.29929
947221,Elizabeth Learning Ctr (3548),33.96405,-118.18337
947222,Van Gogh ES (7422),34.30483,-118.50582
947223,Woodland Hills ES (7890),34.15922,-118.61005
947224,Monroe HS (8768),34.23739,-118.47846
947225,Columbus MS (8102),34.21146,-118.612
947226,Knollwood ES (4762),34.28536,-118.49254
947227,Montara Ave ES (6878),33.94433,-118.21836
947228,Lenicia Weemes ES (7151),34.02143,-118.29596
947229,Graham ES (4219),33.96101,-118.2382
947230,Stonehurst ES (6945),34.24889,-118.37066
947231,Taper ES (7035),33.76254,-118.29839
947232,Palisades ES (5959) #1,34.04607,-118.52706
947233,2068 - Allesandro Elementary,34.1019316,-118.2519373
947234,Virginia ES (7575),34.02852,-118.33999
947235,Solano ES (6836),34.07602,-118.2323
947236,Monlux ES (5342),34.18168,-118.40996
947237,Chatsworth HS (8583),34.25362,-118.58632
947238,Jefferson HS (8714),34.01106,-118.25092
947239,Vintage Math/Sci Mag ES (7562),34.25189,-118.4773
947240,Harding ES (4431),34.30487,-118.41683
947241,Metropolitan HS (8757),34.03397,-118.2344
947242,Marlton ES (1949),34.00867,-118.34373
947243,Serrania ES (6606),34.16052,-118.58735
947244,Byrd MS (8080),34.2232,-118.40812
947245,San Fernando MS (8358),34.28235,-118.4366
947246,Maclay MS (8228),34.27114,-118.40617
947247,Toluca Lake ES (7192),34.15921,-118.36042
947248,Brainard ES (2486),34.27741,-118.36461
947249,59th St ES (3795),33.98638,-118.32011
947250,Marvin ES (5178),34.03556,-118.36449
947251,Dodson MS (8110),33.76602,-118.31559
947252,Aragon ES (2178),34.09486,-118.22553
947253,Mulholland MS (8259),34.19262,-118.50509
947254,Esperanza ES (2383),34.05496,-118.27168
947255,7637 - Welby El,34.1915014,-118.637739
947256,Haynes ES (4473),34.19026,-118.648
947257,Valerio ES (7384),34.20552,-118.46012
947258,Calabash ES (2704),34.15858,-118.62949
947259,Playa Del Rey ES (6110),33.98287,-118.40974
947260,Westport Hts ES (7712),33.96703,-118.38842
947261,Nestle ES (5452),34.16186,-118.52991
947262,Westwood ES (7740),34.04766,-118.43049
947263,2741 - Community Magnet,34.0833253,-118.4630213
947264,Buchanan ES (2603),34.11909,-118.20645
947265,Cohasset ES (3137),34.20751,-118.47799
947266,Rosemont ES (6370),34.07178,-118.27012
947267,Maywood ES (2381),33.99324,-118.18395
947268,Wilbur ES (7774),34.16443,-118.5447
947269,Herrick Ave ES (4515),34.31508,-118.46432
947270,Hesby Oaks SPAN (4521),34.16132,-118.47259
947271,Harrison ES (4438),34.05422,-118.18892
947272,ABF4WTTT,33.92189811,-118.2680346
947273,Ambler ES (2089),33.87823,-118.27078
947274,Hart St ES (4445),34.19663,-118.59169
947275,Sierra Park ES (6753),34.08208,-118.16891
947276,Diego Rivera LC (8867),33.98306,-118.25465
947277,Glenfeliz Blvd ES (4164),34.12275,-118.26711
947278,Walgrove ES (7603),34.00623,-118.45146
947279,Annandale ES (2151),34.12878,-118.18647
947280,Revere MS (8356) #2,34.05627,-118.4947
947281,Amestoy ES (2096),33.89566,-118.29316
947282,Chandler ES (2959),34.16581,-118.43898
947283,Van Ness ES (7425),34.08069,-118.31637
947284,Alta California ES (7398),34.23281,-118.4569
947285,Multnomah St ES (5425),34.06808,-118.1936
947286,Century Pk ES (2945),33.93643,-118.3198
947287,Bryson ES (2589),33.94405,-118.19277
947288,Kittridge ES (4760),34.19136,-118.42986
947289,State ES (6918),33.96433,-118.21165
947290,Crescent Hts Bl EEC (9597),34.0464,-118.37472
947291,Dolores ES (3452),33.82117,-118.27185
947292,Topeka Dr ES (7201),34.2477,-118.54645
947293,Ranchito ES (6192),34.21478034,-118.4338051
947294,A6DR4SLX,34.02558364,-118.203412
947295,Hamlin ES (4349),34.18983,-118.61999
947296,Le Conte MS (8226),34.09483,-118.3168
947297,Mid-City Magnet ES (3500),34.03182,-118.31823
947298,Colfax ES (3164),34.16036,-118.38888
947299,Victory ES (7521),34.18566,-118.39295
947300,135th St ES (5877),33.90963,-118.28942
947301,Reseda ES (6233),34.20385,-118.53855
947302,Canterbury Ave ES (2781),34.23396,-118.42984
947303,Woodcrest ES (7863),33.9379,-118.29512
947304,Carpenter ES (2822),34.14112,-118.39298
947305,Brentwood Sci Mag ES (2507),34.05083,-118.47417
947306,Micheltorena ES (5288),34.08892,-118.27554
947307,Los Feliz ES (4986),34.10257,-118.29284
947308,Castlebay Ln ES (2881),34.29346,-118.54769
947309,Wilshire Crest ES (7795),34.05799,-118.34359
947310,Norwood ES (5699),34.03533,-118.27831
947311,7699 - Westminster El,33.9913156,-118.4721226
947312,Canyon ES (2795) #2,34.03201,-118.51218
947313,Brockton ES (2548),34.04462,-118.46293
947314,Justice St ES (4692),34.21558,-118.63522
947315,Hancock Park ES (4397),34.06951,-118.36021
947316,Canfield ES (2740),34.0506,-118.39028
947317,Sheridan St ES (6685),34.04946,-118.20799
947318,Sierra Vista ES (6767),34.09587,-118.15902
947319,Kester ES (4726),34.16758,-118.45854
947320,Wilmington Pk ES (7781),33.78617,-118.24575
947321,Wilton Pl ES (7808),34.05852,-118.31532
947322,Middleton ES (5301),33.98035,-118.22835
947323,42nd St ES (3959),34.00634,-118.32201
947324,Wonderland ES (7849),34.11406,-118.38002
947325,Hamilton HS (8686),34.03411,-118.3916
947326,President ES (6148),33.80478,-118.30202
947327,El Sereno ES (3562),34.09009,-118.17705
947328,Hollywood HS (8693),34.09918,-118.34006
947329,Point Fermin Magnet ES (6137),33.71426,-118.29024
947330,Van Nuys HS/Rogers CHS (8895),34.18785,-118.45401
947331,7198 - Topanga Canyon,34.092149,-118.603933
947332,Danube ES (3335),34.27381,-118.47393
947333,Marquez ES (5164),34.04582,-118.54802
947334,Laurel ES (4808),34.08798,-118.36324
947335,Frank Del Olmo ES (2386),34.07349,-118.29228
947336,Warner Ave ES (7616),34.06917,-118.43389
947338,Glenwood ES (4192),34.21626,-118.35876
947339,San Pascual ES (6493),34.11921,-118.1725
947340,Mayall ES (5198),34.25463,-118.49569
947341,"Knox ES, Dr Owen Lloyd (6869)",33.95552,-118.27456
947342,Eshelman ES (3640),33.78828,-118.31388
947343,Purche ES (6158),33.91165,-118.3196
947344,Nevada ES (5459),34.22321,-118.60788
947345,Bonita ES (2473),33.82853,-118.26045
947346,San Antonio ES (4641),33.98316,-118.21163
947347,Arroyo Seco Museum Science Magnet SPAN (4322),34.10189,-118.20424
947348,107th St ES (5857),33.94018,-118.27249
947349,Eagle Rock ES (3507),34.13639,-118.21252
953769,A2P8277T,33.94581,-118.24401
953824,AXWG6KH3,33.942,-118.22972
1001754,A424LYXV,34.066389,-118.226667
1002069,2303 - Porter Ranch Community School,34.29305152,-118.5812854
1008670,103rd St.,33.94313,-118.24321
1009028,A2YG9P7N,33.934,-118.24442
1037394,Imperial Hwy.,33.92907,-118.2309
1037399,A0VG3NY7,33.93129,-118.25421
1037495,A6CW7BPK,33.952,-118.23637
1285716,Westminster El (7699),33.99189,-118.47187
1314366,Jordan HS (8721),33.94582,-118.23038
1373846,Topanga Canyon (7198),34.09315,-118.60432
1378636,Allesandro ES (2068),34.10193,-118.25194
1533718,Broad Ave ES (2527),33.80133,-118.26304
1533720,Lorena St ES (4945),34.02543,-118.20309
1533721,Porter Ranch Cmty Sch (2303),34.29327,-118.57995
1533911,Unnamed (DTNWP2832 → AKJWNNMC),33.990160973399924,-118.27359658653583
1533913,Unnamed (DMFTX4824 → A9MYJPX3),33.908,-118.373
1533917,Estrella ES (2942),33.99014,-118.27367
1533920,Utah ES (7370),34.04966,-118.22472
1533921,Unnamed (DPMCM3595 → AH79YTLC),33.908,-118.373
1716811,"Marco Triangle Park, Venice, California",33.991524,-118.459939
1949202,122nd St ES (5887),33.92204,-118.26767
1949203,Ranchito ES (6192),34.21463,-118.43331
1949204,Unnamed (DCBSH3824 → AX9T9WLM),34.0286054,-118.1868189
1949205,Unnamed (DREKF2031 → A9J7X3VX),34.0286054,-118.1868189
1949206,Unnamed (DFYXJ3461 → A64CNGJG),34.0286054,-118.1868189
2069581,Unnamed (DHZCG3067 → AHYTLTN3),34.0286054,-118.1868189
2812558,Terasaki Life Sciences,34.06739,-118.44043
2812560,UCLA Ronald Reagan Hospital,34.06624,-118.44533
2812572,Sycamore Court Apartments,34.06184,-118.44899
2812577,Sherman Oaks,34.13053,-118.45947
2812581,Sproul Hall,34.07245,-118.45012
2812652,CCA 137th and Hindry 2,33.90764,-118.37261
2812720,Anderson,34.07381,-118.44365
2819489,Parkside Village,33.92173587082353,-118.31940561479087
2846873,Wilshire-Montana,34.023,-118.505
2861424,12049 Stanley Park Ct.,33.921251,-118.319129
2945078,N. Main Street Collocation,34.06639,-118.22667
3066056,Community Magnet ES (2741),34.08278,-118.46278
3081004,5TH-SantaMonica,34.016411752421156,-118.4937594742597
3277172,147th & Dublin,33.8983471925088,-118.32219790799851
3279444,Los Angeles,33.87656212503854,-118.30803584540274
3301739,North Hollywood,34.16923909218192,-118.37967178600512
3390414,Maywood ES,33.99324,-118.18395
3390415,Kenter Canyon ES,34.07106,-118.48954
3400917,LA,34.0344396,-118.422865
3400927,outlier,34.0326469,-118.466261
3400944,Brentwood - la,34.0517541,-118.4955941
3400946,West Los Angeles,34.047698861666184,-118.4394084321383
3400957,"Adams Square, Glendale, CA, US",34.1353,-118.24476
3400959,PicWood_Malcolm_Ave_01,34.042457132009524,-118.42781719030872
3400965,Elysian Heights (Preston Ave),34.08740512984364,-118.2519679323237
3400982,Sunkist Park,33.9967043,-118.3973814
3400983,Cielo Way,34.1025875,-118.3125533
3400987,SFF,34.093083,-118.346917
3400990,PICOROXBURY,34.055409,-118.40271
3400996,Topanga Canyon - Skyline & Old Canyon,34.10875140508802,-118.62810499958869
3401006,"Mountain View, ALD-CASITAS",34.190338,-118.160962
3402588,Casitas & W Harriet,34.194752,-118.163376
3408124,Neosho,33.99673285716532,-118.43127063227566
3423890,EBAM-13,34.0423,-118.5542
3443111,"Los Feliz, Los Angeles",34.10796770150822,-118.27719722730004
3470923,Daleridge,34.199983,-118.180075
3471416,"Ocean Park, Santa Monica, CA, USA",34.000671596657256,-118.47405472721823
3581456,EBAM-6,34.04484,-118.52248
3632602,Selma,34.09986,-118.32116
3778909,Burbank,34.171403,-118.310135
3862441,Santa Monica College,34.01075261882176,-118.4889523451382
3886370,Van Nuys,34.2027,-118.49605
3903452,DTLA,34.0384342,-118.2629339
3910090,Loyola Village ES (5014),34.19444,-118.15779
3910091,Welby ES (7637),34.1915,-118.63774
3910092,Palms ES,34.19444,-118.15779
3930632,Father's Office,34.04730585908652,-118.2350604373149
3996322,Redondo Beach,33.83265514615226,-118.38945035849109
4011243,LAX,33.95408,-118.38475
4517206,Winnetka,34.1978981,-118.5696765
4715689,Gramercy Swamp,34.0747906,-118.3122097
4869634,Los Angeles - Mid City,34.047822,-118.346382
5217366,Cleland,34.11081443189916,-118.22092661450135
5276665,Lago Vista Drive,34.09723411841543,-118.40910154713708
5319289,Revere MS (8356) #1,34.05484,-118.49437
5319290,Marquez ES (5164) #3,34.04644,-118.54759
5319291,Palisades HS #3,34.04565,-118.53218
5319292,Revere MS (8356) #3,34.05817,-118.49526
5319293,Paul Revere Charter MS (8356) #2,34.05627,-118.4947
5319294,Marquez ES (5164) #1,34.04482,-118.54927
5319295,Palisades Charter ES #1,34.04607,-118.52706
5319296,Marquez ES (5164) #2,34.04584,-118.54742
5319297,Palisades ES (5959) #2,34.04509,-118.52661
5319373,Canyon ES (2795) #1,34.03176,-118.51181
5329272,Nora Sterry ES,34.04474,-118.44736
5329789,Palisades HS #2,34.04745,-118.53227
5341477,Palisades HS #4,34.04744,-118.53013
5342895,Palisades HS #1,34.04965,-118.53026
5351389,Emerson MS,34.05444,-118.43556
5351913,Mar Vista ES,34.01654,-118.43476
5352400,University HS,34.04565,-118.45998
5353402,Richland Ave ES,34.02783,-118.43933
5353403,Fairburn ES,34.05861,-118.43194
5364242,Topanga Charter ES,34.09228,-118.60418
5364243,Westwood Charter ES,34.04766,-118.43049
5364244,Reseda Colocation,34.19917,-118.53278
5477232,"San Rafael Hills, Pasadena",34.13536,-118.18319
5803007,RedondoBeach ,33.849812,-118.388092
